{
  "cities": [
    {
      "cityName": "Lisbon",
      "country": "Portugal",
      "emoji": "🇵🇹",
      "date": "2027-10-31T15:59:59.138Z",
      "notes": "My favorite city so far!",
      "position": {
        "lat": 38.727881642324164,
        "lng": -9.140900099907554
      },
      "id": " 73930385"
    },
    {
      "cityName": "Madrid",
      "country": "Spain",
      "emoji": "🇪🇸",
      "date": "2027-07-15T08:22:53.976Z",
      "notes": "",
      "position": {
        "lat": 40.46635901755316,
        "lng": -3.7133789062500004
      },
      "id": "17806751"
    },
    {
      "cityName": "Berlin",
      "country": "Germany",
      "emoji": "🇩🇪",
      "date": "2027-02-12T09:24:11.863Z",
      "notes": "Amazing 😃",
      "position": {
        "lat": 52.53586782505711,
        "lng": 13.376933665713324
      },
      "id": " 98443197"
    },
    {
      "id": "5604",
      "cityName": "Giza",
      "country": "Egypt",
      "emoji": "🇪🇬",
      "date": "2025-08-31T19:25:11.796Z",
      "notes": "",
      "position": {
        "lat": "30.031775108954058",
        "lng": "31.16477966308594"
      }
    },
    {
      "id": "1688",
      "cityName": "Giza",
      "country": "Egypt",
      "emoji": "🇪🇬",
      "date": "2025-08-31T19:25:11.796Z",
      "notes": "",
      "position": {
        "lat": "30.031775108954058",
        "lng": "31.16477966308594"
      }
    },
    {
      "id": "9855",
      "cityName": "Giza",
      "country": "Egypt",
      "emoji": "🇪🇬",
      "date": "2025-08-31T19:25:11.796Z",
      "notes": "",
      "position": {
        "lat": "30.031775108954058",
        "lng": "31.16477966308594"
      }
    },
    {
      "id": "1136",
      "cityName": "Giza",
      "country": "Egypt",
      "emoji": "🇪🇬",
      "date": "2025-08-31T19:25:11.796Z",
      "notes": "ggg",
      "position": {
        "lat": "30.031775108954058",
        "lng": "31.16477966308594"
      }
    },
    {
      "id": "da7d",
      "cityName": "Castello de la Plana",
      "country": "Spain",
      "emoji": "🇪🇸",
      "date": "2025-08-31T19:28:04.895Z",
      "notes": "",
      "position": {
        "lat": "40.0137930884578",
        "lng": "-0.03364562988281251"
      }
    },
    {
      "id": "c052",
      "cityName": "l'Alcora",
      "country": "Spain",
      "emoji": "🇪🇸",
      "date": "2025-08-31T19:31:13.228Z",
      "notes": "",
      "position": {
        "lat": "40.06964092063066",
        "lng": "-0.2161216735839844"
      }
    },
    {
      "id": "3ebe",
      "cityName": "l'Alcora",
      "country": "Spain",
      "emoji": "🇪🇸",
      "date": "2025-08-31T19:32:26.174Z",
      "notes": "",
      "position": {
        "lat": "40.07515736005491",
        "lng": "-0.21320343017578128"
      }
    },
    {
      "id": "1a3d",
      "cityName": "l'Alcora",
      "country": "Spain",
      "emoji": "🇪🇸",
      "date": "2025-08-31T19:33:10.359Z",
      "notes": "",
      "position": {
        "lat": "40.07187544845122",
        "lng": "-0.17818450927734375"
      }
    }
  ]
}